Time_s,Altitude_m,Speed_mps,Battery_SOC,Voltage_V,Current_A,Power_W,Temperature_C,MotorRPM,WindSpeed_mps,Signal,Latitude,Longitude,Roll,Pitch,Yaw,Distance_km
0,0,12,100,16.8,5,84,30,4800,5,98,22.5726,88.364,0,8,0,0
1,1.875,12.059991000405,99.9133333333333,16.796,5.0479488163815,84.7853483199437,30.02,4817.49270924474,5.02999887501266,97.97,22.57261,88.364012,0.299968750976548,7.99840005333262,0.7,0.012059991000405
2,3.75,12.1199280129589,99.8266666666667,16.792,5.09559092396855,85.5651627952799,30.04,4834.94169582639,5.05999100040499,97.94,22.57262,88.364024,0.59975003124814,7.99360085328782,1.4,0.0241799190133639
3,5.625,12.179757098396,99.74,16.788,5.14262157585628,86.3343310154752,30.06,4852.30334636576,5.08996962807532,97.91,22.57263,88.364036,0.899156487272908,7.98560431948163,2.1,0.0363596761117599
4,7.5,12.2394244145778,99.6533333333333,16.784,5.18873993636967,87.0878110920286,30.08,4869.53426577827,5.11992801295889,97.88,22.57264,88.364048,1.19800099976194,7.97441365042096,2.8,0.0485991005263377
5,9.375,12.2988762649472,99.5666666666667,16.78,5.23365100538519,87.8206638703635,30.1,4886.59138573908,5.14985941454548,97.85,22.57265,88.36406,1.49609680062273,7.96003332222421,3.5,0.0608979767912849
6,11.25,12.3580591468516,99.48,16.776,5.27706750532489,88.5280844693304,30.12,4903.43207233147,5.17975709839602,97.82,22.57266,88.364072,1.79325758968319,7.94246908683093,4.2,0.0732560359381366
7,13.125,12.4169197996922,99.3933333333333,16.772,5.31871171875253,89.2054329469174,30.14,4920.01423260941,5.20961433765777,97.79,22.57267,88.364084,2.08929765112315,7.9217279697011,4.9,0.0856729557378288
8,15,12.4754052528543,99.3066666666667,16.768,5.35831726481744,89.8482638964588,30.16,4936.29641980803,5.23942441457784,97.76,22.57268,88.364096,2.38403196954073,7.89781826700502,5.6,0.0981483609906831
9,16.875,12.5334628733777,99.22,16.764,5.39563080318288,90.4523547845579,30.18,4952.23793693893,5.2691806220147,97.73,22.57269,88.364108,2.67727634558095,7.87074954230497,6.3,0.110681823864061
10,18.75,12.5910404133227,99.1333333333333,16.76,5.43041365453971,91.0137328500856,30.2,4967.79893851147,5.2988762649472,97.7,22.5727,88.36412,2.96884751105428,7.84053262272993,7,0.123272864277383
11,20.625,12.6480860567897,99.0466666666667,16.756,5.46244332733938,91.5287003928987,30.22,4982.94053012573,5.32850466198096,97.67,22.57271,88.364132,3.25856324347335,7.80717959464484,7.7,0.135920950334173
12,22.5,12.7045484665502,98.96,16.752,5.4915149409806,91.993858291307,30.24,4997.62486568826,5.35805914685165,97.64,22.57272,88.364144,3.54624247993608,7.77070379881624,8.4,0.148625498800723
13,24.375,12.7603768302463,98.8733333333333,16.748,5.517442536346,92.4061275987229,30.26,5011.81524200761,5.38753306992484,97.61,22.57273,88.364156,3.83170543028401,7.73111982507611,9.1,0.16138587563097
14,26.25,12.8155209061191,98.7866666666667,16.744,5.5400602653059,92.762769082282,30.28,5025.47619053319,5.4169197996922,97.58,22.57274,88.364168,4.11477368946542,7.68844350648617,9.8,0.174201396537089
15,28.125,12.8699310682225,98.7,16.74,5.55922345158034,93.0614005794548,30.3,5038.57356600817,5.44621272426349,97.55,22.57275,88.36418,4.39527034903257,7.64269191300485,10.5,0.187071327605311
16,30,12.923558351083,98.6133333333333,16.736,5.57480951617354,93.3000120626803,30.32,5051.07463181483,5.47540525285427,97.52,22.57276,88.364192,4.67302010770381,7.59388334465953,11.2,0.199994885956394
17,31.875,12.9763544937658,98.5266666666667,16.732,5.58671876146119,93.4769783167686,30.34,5062.9481417991,5.50449081726876,97.49,22.57277,88.364204,4.9478493809211,7.54203732422677,11.9,0.21297124045016
18,33.75,13.0282719833062,98.44,16.728,5.59487500891501,93.5910691491303,30.36,5074.16441836962,5.53346287337766,97.46,22.57278,88.364216,5.21958640933476,7.48717458942348,12.6,0.225999512433466
19,35.625,13.0792640974679,98.3533333333333,16.724,5.59922608638535,93.6414570687086,30.38,5084.69542667628,5.56231490259059,97.43,22.57279,88.364228,5.48806136614747,7.42931708461208,13.3,0.239078776530934
20,37.5,13.1292849467901,98.2666666666667,16.72,5.5997441618249,93.6277223857124,30.4,5094.51484468276,5.59104041332268,97.4,22.5728,88.36424,5.75310646325044,7.36848795202308,14,0.252208061477724
21,39.375,13.1782895158845,98.18,16.716,5.59642592131885,93.5498557007658,30.42,5103.59812895791,5.61963294245521,97.37,22.57281,88.364252,6.01455605608558,7.30471152249847,14.7,0.265386350993609
22,41.25,13.2262337039469,98.0933333333333,16.712,5.58929259028257,93.4082577688023,30.44,5111.9225760215,5.64808605678974,97.34,22.57282,88.364264,6.27224674716791,7.23801330575971,15.4,0.278612584697556
23,43.125,13.2730743644439,98.0066666666667,16.708,5.57838979769147,93.2037367398291,30.46,5119.46737909118,5.67639335449558,97.31,22.57283,88.364276,6.52601748820371,7.1684199802042,16.1,0.291885659062
24,45,13.3187693439429,97.92,16.704,5.56378728421119,92.9375027954638,30.48,5126.21368008853,5.70454846655018,97.28,22.57284,88.364288,6.77570968074043,7.09595938223427,16.8,0.305204428405942
25,46.875,13.3632775200467,97.8333333333333,16.7,5.54557845609541,92.6111602167933,30.5,5132.14461677446,5.73254505817209,97.25,22.57285,88.3643,7.02116727528555,7.02066049512298,17.5,0.318567705925989
26,48.75,13.4065588384008,97.7466666666667,16.696,5.52387978770451,92.2266969355145,30.52,5137.24536489602,5.76037683024632,97.22,22.57286,88.364312,7.26223686883247,6.9425534374212,18.2,0.33197426476439
27,50.625,13.4485743487403,97.66,16.692,5.49883007646721,91.7864716363907,30.54,5141.50317523933,5.78803752074156,97.19,22.57287,88.364324,7.4987678007324,6.86166945091059,18.9,0.34542283911313
28,52.5,13.4892862399417,97.5733333333333,16.688,5.47058955505065,91.2931984946853,30.56,5144.90740549596,5.81552090611914,97.16,22.57288,88.364336,7.73061224685229,6.77804088810733,19.6,0.358912125353072
29,54.375,13.528657874051,97.4866666666667,16.684,5.43933886641815,90.7499296473204,30.58,5147.44954686316,5.8428208027333,97.13,22.57289,88.364348,7.9576253119602,6.6917011993215,20.3,0.372440783227123
30,56.25,13.566653819255,97.4,16.68,5.40527790833069,90.1600355109559,30.6,5149.12324531142,5.86993106822246,97.1,22.5729,88.36436,8.17966512028001,6.60268491927743,21,0.386007437046378
31,58.125,13.6032398817676,97.3133333333333,16.676,5.36862455468343,89.5271830739008,30.62,5149.92431746628,5.89684560289127,97.07,22.57291,88.364372,8.39659290415924,6.51102765330027,21.7,0.399610676928146
32,60,13.638383136602,97.2266666666667,16.672,5.32961326185628,88.8553123016678,30.64,5149.85076106453,5.92355835108297,97.04,22.57292,88.364384,8.60827309079427,6.41676606307434,22.4,0.413249060064747
33,61.875,13.672051957201,97.14,16.668,5.28849356899319,88.1486108079785,30.66,5148.90275995887,5.9500633025419,97.01,22.57293,88.364396,8.81457338695894,6.31993785197892,23.1,0.426921112021949
34,63.75,13.7042160438987,97.0533333333333,16.664,5.24552850180321,87.4114869540487,30.68,5147.08268365836,5.97635449376581,96.98,22.57294,88.364408,9.01536486168351,6.22058175000742,23.8,0.440625328065847
35,65.625,13.734846451188,96.9666666666667,16.66,5.20099289009354,86.6485415489584,30.7,5144.39508140588,6.0024260093476,96.95,22.57295,88.36442,9.21052202683233,6.11873749827591,24.5,0.454360174517035
36,67.5,13.7639156137699,96.88,16.656,5.15517160979667,85.8645383327733,30.72,5140.84667080737,6.02827198330623,96.92,22.57296,88.364432,9.3999229155298,6.01444583312716,25.2,0.468124090130805
37,69.375,13.7913973713601,96.7933333333333,16.652,5.10835776073654,85.0643734317849,30.74,5136.44632104136,6.0538866004066,96.89,22.57297,88.364444,9.58344915838577,5.9077484698367,25.9,0.481915487502165
38,71.25,13.8172669922318,96.7066666666667,16.648,5.06085079178996,84.2530439817193,30.76,5131.20503069059,6.07926409746794,96.86,22.57298,88.364456,9.76098605747248,5.79868808592724,26.6,0.495732754494397
39,73.125,13.8415011954723,96.62,16.644,5.01295458543566,83.4356161199911,30.78,5125.13590025135,6.10439876466046,96.83,22.57299,88.364468,9.93242265800709,5.68730830409822,27.3,0.509574255689869
40,75,13.8640781719345,96.5333333333333,16.64,4.96497551394345,82.617192552019,30.8,5118.25409938899,6.12928494679007,96.8,22.573,88.36448,10.0976518176948,5.57365367477732,28,0.523438333861804
41,76.875,13.8849776038634,96.4466666666667,16.636,4.91722047963726,81.8028798992455,30.82,5110.57682902168,6.15391704457079,96.77,22.57301,88.364492,10.2565702736891,5.45776965830091,28.7,0.537323311465667
42,78.75,13.904180683181,96.36,16.632,4.86999495176757,80.9977560377983,30.84,5102.12327832711,6.17828951588454,96.74,22.57302,88.364504,10.4090787071282,5.33970260673046,29.4,0.551227492148848
43,80.625,13.9216701284121,96.2733333333333,16.628,4.82360101255066,80.2068376366924,30.86,5092.91457677947,6.20239687702808,96.71,22.57303,88.364516,10.5550818052055,5.21949974531242,30.1,0.56514916227726
44,82.5,13.9374302002365,96.1866666666667,16.624,4.77833542487331,79.435048103094,30.88,5082.97374133686,6.22623370394687,96.68,22.57304,88.364528,10.6944883207372,5.09720915358864,30.8,0.579086592477497
45,84.375,13.9514467156533,96.1,16.62,4.73448773402309,78.6871861394637,30.9,5072.32561891077,6.2497946334554,96.65,22.57305,88.36454,10.8272111291891,4.97287974616532,31.5,0.59303803919315
46,86.25,13.9637070607447,96.0133333333333,16.616,4.69233841558657,77.9678951133864,30.92,5060.99682426185,6.27307436444394,96.62,22.57306,88.364552,10.9531672831263,4.8465612531477,32.2,0.607001746253895
47,88.125,13.9742002020277,95.9266666666667,16.612,4.65215708136275,77.2816334355981,30.94,5049.0156734768,6.29606765907121,96.59,22.57307,88.364564,11.0722780640524,4.71830420024879,32.9,0.620975946455923
48,90,13.9829166963834,95.84,16.608,4.61420075476765,76.6326461351812,30.96,5036.4121131929,6.31876934394295,96.56,22.57308,88.364576,11.1844690316067,4.58815988857965,33.6,0.634958863152306
49,91.875,13.9898486995552,95.7533333333333,16.604,4.57871222676152,76.0249378131482,30.98,5023.21764574708,6.34117431127581,96.53,22.57309,88.364588,11.2896700700865,4.45618037412974,34.3,0.648948711851861
50,93.75,13.9949899732081,95.6666666666667,16.6,4.54591850281524,75.462247146733,31,5009.46525043638,6.36327752004667,96.5,22.5731,88.3646,11.387815432267,4.32241844694512,35,0.662943701825069
51,95.625,13.998335890543,95.58,16.596,4.51602935085006,74.9480231067075,31.02,4995.189301087,6.3850739971268,96.47,22.57311,88.364612,11.4788437804918,4.1869276100132,35.7,0.676942037715612
52,97.5,13.9998834404599,95.4933333333333,16.592,4.48923595943866,74.4854030390062,31.04,4980.42548013751,6.40655883840082,96.44,22.57312,88.364624,11.5626982250063,4.04976205786223,36.4,0.690941921156072
53,99.375,13.9996312302686,95.4066666666667,16.588,4.46570971485081,74.0771927499452,31.06,4965.21068945146,6.42772720987007,96.41,22.57313,88.364636,11.6393263595122,3.91097665488422,37.1,0.704941552386341
54,101.25,13.997579486941,95.32,16.584,4.44560110476609,73.7258487214408,31.08,4949.58295808184,6.44857434874029,96.38,22.57314,88.364648,11.7086802939199,3.77062691338992,37.8,0.718939131873282
55,103.125,13.9937300569078,95.2333333333333,16.58,4.42903875566629,73.4334625689471,31.1,4933.58134721832,6.46909556449316,96.35,22.57315,88.36466,11.7707166842779,3.62876897140462,38.5,0.73293286193019
56,105,13.9880864043962,95.1466666666667,16.576,4.4161286100649,73.2017478404357,31.12,4917.24585255457,6.48928623994172,96.32,22.57316,88.364672,11.8253967598615,3.4854595702137,39.2,0.746920948334586
57,106.875,13.9806536083123,95.06,16.572,4.40695324883652,73.0320292397188,31.14,4900.61730431989,6.50914183226917,96.29,22.57317,88.364684,11.8726863474035,3.34075603166686,39.9,0.760901601942898
58,108.75,13.9714383576711,94.9733333333333,16.568,4.40157136298114,72.9252343418716,31.16,4883.73726522489,6.52865787405101,96.26,22.57318,88.364696,11.9125558924511,3.19471623525019,40.6,0.774873040300569
59,110.625,13.9604489455761,94.8866666666667,16.564,4.40001737820199,72.8818878525377,31.18,4866.64792657636,6.54782997426016,96.23,22.57319,88.364708,11.9449804778362,3.04739859493505,41.3,0.788833489246145
60,112.5,13.9476952617564,94.8,16.56,4.4023012346985,72.9021084466071,31.2,4849.39200282095,6.56665381925497,96.2,22.5732,88.36472,11.9699398392487,2.89886203581339,42,0.802781184507902
61,114.375,13.9331887836666,94.7133333333333,16.556,4.408408323583,72.9856082052401,31.22,4832.01262478135,6.58512517374971,96.17,22.57321,88.364732,11.9874183778999,2.74916597052838,42.7,0.816714373291568
62,116.25,13.9169425661578,94.6266666666667,16.552,4.41829958032771,73.1316946535843,31.24,4814.55323185165,6.60323988176755,96.14,22.57322,88.364744,11.9974051702723,2.59837027551021,43.4,0.830631315857726
63,118.125,13.8989712297293,94.54,16.548,4.43191173464443,73.3392753848961,31.26,4797.0574634215,6.62099386757562,96.11,22.57323,88.364756,11.9998939749456,2.44653526702631,44.1,0.844530287087455
64,120,13.8792909473707,94.4533333333333,16.544,4.44915771519844,73.606865240243,31.28,4779.56904980035,6.638383136602,96.08,22.57324,88.364768,11.9948832364981,2.29372167705564,44.8,0.858409578034826
65,121.875,13.8579194300077,94.3666666666667,16.54,4.46992720656791,73.9325959966332,31.3,4762.13170291446,6.65540377633452,96.05,22.57325,88.36478,11.982376086478,2.1399906289967,45.5,0.872267497464834
66,123.75,13.8348759105636,94.28,16.536,4.49408735488615,74.3142285003974,31.32,4744.78900704986,6.67205195720104,96.02,22.57326,88.364792,11.962380341447,1.98540361321898,46.2,0.886102373375397
67,125.625,13.8101811266504,94.1933333333333,16.532,4.52148361765298,74.749167167039,31.34,4727.58430991431,6.68832393343111,95.99,22.57327,88.364804,11.934908498095,1.83002246246768,46.9,0.899912554502048
68,127.5,13.7838573019068,94.1066666666667,16.528,4.55194075227931,75.2344767536725,31.36,4710.56061429061,6.70421604389873,95.96,22.57328,88.364816,11.8999777254296,1.67390932713135,47.6,0.913696411803955
69,129.375,13.7559281259982,94.02,16.524,4.58526393704172,75.7669012956775,31.38,4693.76047055205,6.71972471294607,95.93,22.57329,88.364828,11.8576098540469,1.51712665038267,48.3,0.927452339929953
70,131.25,13.7264187332977,93.9333333333333,16.52,4.62124001727661,76.3428850854095,31.4,4677.22587030863,6.73484645118803,95.9,22.5733,88.36484,11.8078313624872,1.35973714320193,49,0.941178758663251
71,133.125,13.6953556802671,93.8466666666667,16.516,4.65963886884262,76.9585955578047,31.42,4660.99814144991,6.74957785629731,95.87,22.57331,88.364852,11.7506733606875,1.20180375929349,49.7,0.954874114343518
72,135,13.6627669215574,93.76,16.512,4.70021487012986,77.6099479355842,31.44,4645.1178448468,6.7639156137699,95.84,22.57332,88.364864,11.6861715705383,1.04338966990516,50.4,0.968536881265075
73,136.875,13.6286817848516,93.6733333333333,16.508,4.74270847319996,78.292631475585,31.46,4629.62467297051,6.77785649767084,95.81,22.57333,88.364876,11.6143663035589,0.884558238560557,51.1,0.982165563049927
74,138.75,13.5931309444722,93.5866666666667,16.504,4.78684786400717,79.0021371475744,31.48,4614.55735068203,6.7913973713601,95.78,22.57334,88.364888,11.5353024357036,0.725372995714477,51.8,0.995758693994399
75,140.625,13.5561463937758,93.5,16.5,4.83235070108064,79.7337865678306,31.5,4599.95353844018,6.80453518819819,95.75,22.57335,88.3649,11.4490293793163,0.565897613341623,52.5,1.00931484038817
76,142.5,13.5177614163618,93.4133333333333,16.496,4.87892592154632,80.4827620018281,31.52,4585.84973817005,6.81726699223177,95.72,22.57336,88.364912,11.355601052249,0.406195879468633,53.2,1.02283260180454
77,144.375,13.4780105561189,93.3266666666667,16.492,4.92627560293607,81.2441372436217,31.54,4572.28120202719,6.82958991885863,95.69,22.57337,88.364924,11.2550758441647,0.246331672659729,53.9,1.03631061236066
78,146.25,13.4369295861383,93.24,16.488,4.97409686887476,82.0129091740071,31.56,4559.28184428561,6.84150119547227,95.66,22.57338,88.364936,11.1475165800464,0.0863689364661391,54.6,1.04974754194679
79,148.125,13.3945554765199,93.1533333333333,16.484,5.0220838264555,82.7840297952924,31.58,4546.88415656972,6.85299814208571,95.63,22.57339,88.364948,11.0329904809329,-0.0736283461504667,55.3,1.06314209742331
80,150,13.3509263611023,93.0666666666667,16.48,5.0699295229103,83.5524385375617,31.6,4535.11912664222,6.86407817193445,95.6,22.5734,88.36496,10.9115691219082,-0.233596178410311,56,1.07649302378442
81,150,13.3060815031445,92.98,16.476,5.11732790906033,84.3130946296779,31.62,4524.01616095083,6.87473879205853,95.57,22.57341,88.364972,10.7833283873691,-0.393470575313364,56.7,1.08979910528756
82,150,13.2600612599918,92.8933333333333,16.472,5.16397579698621,85.0610093279568,31.64,4513.60301112746,6.88497760386339,95.54,22.57342,88.364984,10.6483484236005,-0.553187589232497,57.4,1.10305916654755
83,150,13.2129070467566,92.8066666666667,16.468,5.20957479939604,85.791277796454,31.66,4503.90570462359,6.89479230365958,95.51,22.57343,88.364996,10.5067135886858,-0.712683335491674,58.1,1.11627207359431
84,150,13.1646612990482,92.72,16.464,5.2538332382858,86.4991104351374,31.68,4494.94847965524,6.90418068318103,95.48,22.57344,88.365008,10.3585123997865,-0.871894017918969,58.8,1.12943673489336
85,150,13.1153674347828,92.6333333333333,16.46,5.29646801068316,87.1798634558449,31.7,4486.75372462,6.91314063008197,95.45,22.57345,88.36502,10.2038374778214,-1.0307559543642,59.5,1.14255210232814
86,150,13.0650698151112,92.5466666666667,16.456,5.33720639954045,87.8290685108376,31.72,4479.34192213769,6.92167012841215,95.42,22.57346,88.365032,10.042785489582,-1.18920560217091,60.2,1.15561717214325
87,150,13.0138137044961,92.46,16.452,5.37578781819299,88.4424611849111,31.74,4472.73159785454,6.92976725907041,95.39,22.57347,88.365044,9.87545708731831,-1.34717958359262,60.9,1.16863098584775
88,150,12.9616452299773,92.3733333333333,16.448,5.41196547722458,89.0160081693899,31.76,4466.93927413867,6.93743020023653,95.36,22.57348,88.365056,9.70195684583508,-1.50461471114304,61.6,1.18159263107772
89,150,12.9086113396606,92.2866666666667,16.444,5.44550796307748,89.5459329448461,31.78,4461.97942878278,6.94465722778107,95.33,22.57349,88.365068,9.52239319713553,-1.66144801287027,62.3,1.19450124241738
90,150,12.8547597604677,92.2,16.44,5.47620071830949,90.0287398090081,31.8,4457.86445881722,6.95144671565332,95.3,22.5735,88.36508,9.33687836265505,-1.8176167575447,63,1.20735600217785
91,150,12.8001389551848,92.1133333333333,16.436,5.50384741402939,90.461236096987,31.82,4454.60464952387,6.95779713624715,95.27,22.57351,88.365092,9.14552828312643,-1.97305847975067,63.7,1.22015614113304
92,150,12.7447980788501,92.0266666666667,16.432,5.52827120573182,90.8405524525853,31.84,4452.20814872829,6.96370706074472,95.24,22.57352,88.365104,8.94846254612064,-2.12771100487184,64.4,1.23290093921189
93,150,12.6887869345168,91.94,16.428,5.54931586449865,91.1641610219839,31.86,4450.68094643439,6.96917515943795,95.21,22.57353,88.365116,8.74580431130856,-2.28151247396017,65.1,1.2455897261464
94,150,12.6321559284341,91.8533333333333,16.424,5.56684677633089,91.4298914544586,31.88,4450.02685985256,6.9742002020277,95.18,22.57354,88.365128,8.53768023349013,-2.43440136847867,65.8,1.25822188207484
95,150,12.5749560246851,91.7666666666667,16.42,5.58075180321889,91.6359446088542,31.9,4450.24752385862,6.97878105790059,95.15,22.57355,88.36514,8.32422038343926,-2.58631653490803,66.5,1.27079683809952
96,150,12.5172386993222,91.68,16.416,5.59094200044294,91.7809038792712,31.92,4451.34238690746,6.98291669638337,95.12,22.57356,88.365152,8.10555816661381,-2.73719720920719,67.2,1.28331407679885
97,150,12.4590558940425,91.5933333333333,16.412,5.59735218551591,91.8637440686872,31.94,4453.30871241165,6.98660618697484,95.09,22.57357,88.365164,7.88183023978153,-2.88698304111814,67.9,1.29577313269289
98,150,12.4004599694435,91.5066666666667,16.408,5.59994135512879,91.8838377549531,31.96,4456.14158558148,6.98984869955516,95.06,22.57358,88.365176,7.65317642561404,-3.03561411830524,68.6,1.30817359266233
99,150,12.3415036579023,91.42,16.404,5.59869294743184,91.840959109672,31.98,4459.83392570936,6.9926435045727,95.03,22.57359,88.365188,7.41973962530219,-3.18303099031933,69.3,1.32051509632023
100,150,12.2822400161197,91.3333333333333,16.4,5.59361494797403,91.7352851467741,32,4464.3765038679,6.99498997320811,95,22.5736,88.3652,7.18166572924748,-3.32917469237714,70,1.33279733633635
101,150,12.2227223773733,91.2466666666667,16.396,5.58473983862266,91.5673943940572,32.02,4469.75796597743,6.99688757751585,94.97,22.57361,88.365212,6.93910352588529,-3.4739867689464,70.7,1.34502005871373
102,150,12.1630043035205,91.16,16.392,5.57212438979034,91.3382629974433,32.04,4475.96486118529,6.99833589054295,94.94,22.57362,88.365224,6.692204608697,-3.6174092971273,71.4,1.35718306301725
103,150,12.1031395367971,91.0733333333333,16.388,5.55584929729806,91.0492582841206,32.06,4482.98167548595,6.9993345864251,94.91,22.57363,88.365236,6.44112328146894,-3.75938490982082,72.1,1.36928620255404
104,150,12.0431819514522,90.9866666666667,16.384,5.53601866619729,90.7021298269764,32.08,4490.79087049795,6.99988344045993,94.88,22.57364,88.365248,6.18601646185757,-3.89985681867488,72.8,1.3813293845055
105,150,11.9831855052657,90.9,16.38,5.51275934485297,90.2989980686916,32.1,4499.37292730069,6.99998232915761,94.85,22.57365,88.36526,5.92704358332107,-4.03876883679886,73.5,1.39331257001076
106,150,11.9232041909895,90.8133333333333,16.376,5.48622011354681,89.8423405794426,32.12,4508.70639522163,6.99963123026858,94.82,22.57366,88.365272,5.66436649547859,-4.17606540123766,74.2,1.40523577420175
107,150,11.8632919877579,90.7266666666667,16.372,5.45657073279126,89.3349760372586,32.14,4518.76794545175,6.99883022278863,94.79,22.57367,88.365284,5.39814936295952,-4.31169159519609,74.9,1.41709906618951
108,150,11.8035028125098,90.64,16.368,5.42400085744153,88.7800460346029,32.16,4529.5324293554,6.99757948694105,94.76,22.57368,88.365296,5.12855856280596,-4.4455931700049,75.6,1.42890256900202
109,150,11.7438904714672,90.5533333333333,16.364,5.38871882355171,88.1809948286002,32.18,4540.97294132889,6.99587930413613,94.73,22.57369,88.365308,4.85576258049243,-4.5777165668195,76.3,1.44064645947349
110,150,11.6845086117135,90.4666666666667,16.36,5.35095031573506,87.5415471654255,32.2,4553.06088605036,6.99373005690784,94.7,22.5737,88.36532,4.57993190462798,-4.70800893804277,77,1.4523309680852
111,150,11.6254106729142,90.38,16.356,5.31093692355259,86.8656843216261,32.22,4565.76604995331,6.99113222882773,94.67,22.57371,88.365332,4.30123892040636,-4.83641816846344,77.7,1.46395637875811
112,150,11.5666498392252,90.2933333333333,16.352,5.26893459616435,86.1576185164795,32.24,4579.05667674469,6.98808640439615,94.64,22.57372,88.365344,4.01985780187086,-4.96289289610144,78.4,1.47552302859734
113,150,11.5082789914307,90.2066666666667,16.348,5.22521200512828,85.4217658598371,32.26,4592.89954677915,6.98459326891077,94.61,22.57373,88.365356,3.73596440306121,-5.08738253275202,79.1,1.48703130758877
114,150,11.4503506593538,90.12,16.344,5.18004882581905,84.6627180091866,32.28,4607.26006009083,6.98065360831232,94.58,22.57374,88.365368,3.44973614811053,-5.20983728422037,79.8,1.49848165824812
115,150,11.3929169745831,90.0333333333333,16.34,5.13373394846015,83.8852127178388,32.3,4622.10232287526,6.97626830900782,94.55,22.57375,88.36538,3.16135192036105,-5.3302081702386,80.5,1.50987457522271
116,150,11.3360296235585,89.9466666666667,16.336,5.08656363021227,83.0941034631477,32.32,4637.38923720519,6.97143835767111,94.52,22.57376,88.365392,2.87099195056778,-5.44844704405722,81.2,1.52121060484627
117,150,11.2797398010561,89.86,16.332,5.03883960013854,82.2943283494626,32.34,4653.08259375605,6.96616484102087,94.49,22.57377,88.365404,2.57883770426024,-5.56450661170322,81.9,1.53249034464732
118,150,11.2240981641165,89.7733333333333,16.328,4.99086712916814,81.4908784850574,32.36,4669.14316730942,6.96044894557609,94.46,22.57378,88.365416,2.28507176833232,-5.67834045089696,82.6,1.54371444281144
119,150,11.1691547864575,89.6866666666667,16.324,4.94295307740418,80.6887660355459,32.38,4685.53081479559,6.95429195738914,94.43,22.57379,88.365428,1.9898777369315,-5.78990302962055,83.3,1.5548835975979
120,150,11.1149591134103,89.6,16.32,4.89540393126621,79.8929921582646,32.4,4702.20457563038,6.94769526175639,94.4,22.5738,88.36544,1.69344009671841,-5.89914972432996,84,1.56599855671131
121,150,11.0615599174225,89.5133333333333,16.316,4.84852384302305,79.108515022764,32.42,4719.12277409521,6.94066034290652,94.37,22.57381,88.365452,1.39594411156872,-6.00603683780393,84.7,1.57706011662873
122,150,11.0090052541663,89.4266666666667,16.312,4.8026126852562,78.3402181218992,32.44,4736.24312350477,6.9331887836666,94.34,22.57382,88.365464,1.09757570678924,-6.11052161662219,85.4,1.58806912188289
123,150,10.9573424192912,89.34,16.308,4.75796413269874,77.592879076051,32.46,4753.52283190162,6.92528226510592,94.31,22.57383,88.365476,0.798521352920655,-6.21256226826634,86.1,1.59902646430219
124,150,10.9066179058614,89.2533333333333,16.304,4.71486378371913,76.8711391297567,32.48,4770.91870901388,6.91694256615783,94.28,22.57384,88.365488,0.498967949199486,-6.31211797783625,86.8,1.60993308220805
125,150,10.8568773625153,89.1666666666667,16.3,4.67358733346638,76.179473535502,32.5,4788.38727420835,6.90817156321939,94.25,22.57385,88.3655,0.199102706752175,-6.40914892437547,87.5,1.62078995957056
126,150,10.8081655523845,89.08,16.296,4.63439881036186,75.5221630136569,32.52,4805.88486516952,6.89897122972926,94.22,22.57386,88.365512,-0.100886968405789,-6.50361629679912,88.2,1.63159812512295
127,150,10.7605263128101,88.9933333333333,16.292,4.5975488872185,74.9032664705638,32.54,4823.36774703254,6.88934363572367,94.19,22.57387,88.365524,-0.400813592492506,-6.59548230941778,88.9,1.64235865143576
128,150,10.7140025158922,88.9066666666667,16.288,4.56327327779016,74.3265951486461,32.56,4840.79222169767,6.87929094737065,94.16,22.57388,88.365536,-0.700489721130961,-6.68471021705126,89.6,1.65307265395165
129,150,10.6686360299078,88.82,16.284,4.53179122900806,73.7956883731673,32.58,4858.11473705274,6.86881542648267,94.13,22.57389,88.365548,-0.999728066495634,-6.7712643297262,90.3,1.66374128998156
130,150,10.6244676816321,88.7333333333333,16.28,4.50330411854861,73.3137910499713,32.6,4875.29199583074,6.85791943000774,94.1,22.5739,88.36556,-1.2983416143613,-6.85511002695158,91,1.67436575766319
131,150,10.5815372195972,88.6466666666667,16.276,4.47799416670348,72.8838330572658,32.62,4892.28106383047,6.84660540949909,94.07,22.57391,88.365572,-1.59614374098084,-6.93621377156642,91.7,1.68494729488279
132,150,10.5398832783214,88.56,16.272,4.4560232707916,72.508410662321,32.64,4909.03947722968,6.83487591056362,94.04,22.57392,88.365584,-1.89294832971898,-7.01454312315425,92.4,1.69548717816111
133,150,10.4995433435402,88.4733333333333,16.268,4.43753196956882,72.1897700809456,32.66,4925.52534872248,6.82273357228909,94.01,22.57393,88.365596,-2.18856988736918,-7.09006675101882,93.1,1.70598672150465
134,150,10.460553718472,88.3866666666667,16.264,4.42263854425946,71.9297932838358,32.68,4941.69747221581,6.8101811266504,93.98,22.57394,88.365608,-2.4828236600808,-7.16275444671594,93.8,1.71644727522312
135,150,10.4229494911476,88.3,16.26,4.41143826196011,71.7299861394713,32.7,4957.51542582322,6.79722139789486,93.95,22.57395,88.36562,-2.77552574882426,-7.23257713613649,94.5,1.72687022471427
136,150,10.3867645028335,88.2133333333333,16.256,4.40400276625534,71.5914689682467,32.72,4972.93967289851,6.78385730190676,93.92,22.57396,88.365632,-3.06649322432198,-7.29950689113566,95.2,1.7372569892171
137,150,10.3520313175767,88.1266666666667,16.252,4.40037961894325,71.5149695670657,32.74,4987.9316608568,6.77009184555132,93.89,22.57397,88.365644,-3.35554424137316,-7.36351694070385,95.9,1.74760902053468
138,150,10.3187811928996,88.04,16.248,4.40059199580227,71.5008187477953,32.76,5002.45391753587,6.75592812599816,93.86,22.57398,88.365656,-3.64249815250115,-7.42458168167466,96.6,1.75792780172758
139,150,10.28704405167,87.9533333333333,16.244,4.40463853834527,71.5489484168805,32.78,5016.47014485706,6.74136933002441,93.83,22.57399,88.365668,-3.92717562085227,-7.48267668896591,97.3,1.76821484577925
140,150,10.2568484551728,87.8666666666667,16.24,4.41249336250921,71.6588922071496,32.8,5029.94530955158,6.72641873329775,93.8,22.574,88.36568,-4.20939873227544,-7.53777872534927,98,1.77847169423442
141,150,10.2282215774068,87.78,16.236,4.42410622422486,71.8297886565149,32.82,5042.84573072542,6.71107969963937,93.77,22.57401,88.365692,-4.48899110651278,-7.58986575074486,98.7,1.78869991581183
142,150,10.2011891806296,87.6933333333333,16.232,4.43940284080736,72.0603869119851,32.84,5055.13916404406,6.69535568026714,93.74,22.57402,88.365704,-4.76577800743152,-7.63891693103701,99.4,1.79890110499246
143,150,10.1757755921738,87.6066666666667,16.228,4.45828536611189,72.3490549212638,32.86,5066.79488232649,6.67925021301908,93.71,22.57403,88.365716,-5.03958645222839,-7.68491264640762,100.1,1.80907688058463
144,150,10.1520036825536,87.52,16.224,4.4806330164151,72.6937900583187,32.88,5077.7837523472,6.66276692155737,93.68,22.57404,88.365728,-5.31024531953823,-7.7278344991838,100.8,1.81922888426718
145,150,10.1298948448831,87.4333333333333,16.22,4.50630284301877,73.0922321137645,32.9,5088.07830765403,6.64590951455305,93.65,22.57405,88.36574,-5.57758545637931,-7.76766532119672,101.5,1.82935877911207
146,150,10.1094689756239,87.3466666666667,16.216,4.53513064663362,73.5416785658108,32.92,5097.65281722,6.62868178485159,93.62,22.57406,88.365752,-5.8414397838684,-7.80438918064866,102.2,1.83946824808769
147,150,10.0907444566796,87.26,16.212,4.56693202769442,74.0391020329819,32.94,5106.48334975751,6.61108760861949,93.59,22.57407,88.365764,-6.10164340163964,-7.83799138848547,102.9,1.84955899254437
148,150,10.0737381388534,87.1733333333333,16.208,4.60150356588794,74.5811697959118,32.96,5114.54783353407,6.59313094447217,93.56,22.57408,88.365776,-6.35803369090192,-7.86845850427205,103.6,1.85963273068322
149,150,10.0584653266834,87.0866666666667,16.204,4.63862412134877,75.1642652623354,32.98,5121.82611154014,6.57481583258332,93.53,22.57409,88.365788,-6.61045041607032,-7.8957783415683,104.3,1.86969119600991
150,150,10.0449397646698,87,16.2,4.67805624919974,75.7845112370358,33,5128.29999187116,6.55614639377584,93.5,22.5741,88.3658,-6.85873582490813,-7.91993997280356,105,1.87973613577458
151,150,10.0331736249054,86.9133333333333,16.196,4.7195477183889,76.4377948470267,33.02,5133.95329319783,6.53712682859471,93.47,22.57411,88.365812,-7.10273474711686,-7.9409337336475,105.7,1.88976930939948
152,150,10.0231774961217,86.8266666666667,16.192,4.76283312510745,77.1197939617399,33.04,5138.77188521102,6.51776141636184,93.44,22.57412,88.365824,-7.34229469131263,-7.95875122687568,106.4,1.8997924868956
153,150,10.0149603741601,86.74,16.188,4.8076355904684,77.8260049385024,33.06,5142.74372394017,6.49805451421331,93.41,22.57413,88.365836,-7.57726594032835,-7.97338532572837,107.1,1.90980744726976
154,150,10.0085296538755,86.6533333333333,16.184,4.85366853158655,78.5517715151967,33.08,5145.85888185695,6.47801055611894,93.38,22.57414,88.365848,-7.80750164478201,-7.98483017676117,107.8,1.91981597692364
155,150,10.0038911224822,86.5666666666667,16.18,4.90063749473101,79.2923146647478,33.1,5148.10957268891,6.45763405188476,93.35,22.57415,88.36586,-8.03285791485283,-7.99308120218624,108.5,1.92981986804612
156,150,10.0010489543454,86.48,16.176,4.94824203882419,80.0427632200202,33.12,5149.49017088111,6.43692958613825,93.32,22.57416,88.365872,-8.25319391020769,-7.99813510170343,109.2,1.93982091700047
157,150,10.0000057072246,86.3933333333333,16.172,4.99617765723941,80.7981850728757,33.14,5149.99722565707,6.41590181729686,93.29,22.57417,88.365884,-8.46837192802172,-7.99998985382032,109.9,1.94982092270769
158,150,10.0007623199716,86.3066666666667,16.168,5.04413772560414,81.5536187475678,33.16,5149.62946964392,6.39455547651988,93.26,22.57418,88.365896,-8.67825748903815,-7.99864471666079,110.6,1.95982168502766
159,150,10.0033181116862,86.22,16.164,5.09181546314965,82.3041051463509,33.18,5148.38782204017,6.37289536664391,93.23,22.57419,88.365908,-8.8827194216134,-7.99410022826177,111.3,1.96982500313935
160,150,10.0076707823283,86.1333333333333,16.16,5.13890589506092,83.0447192641845,33.2,5146.27538631818,6.3509263611023,93.2,22.5742,88.36592,-9.08162994369514,-7.98635820635802,112,1.97983267392168
161,150,10.0138164147881,86.0466666666667,16.156,5.18510780327479,83.7706016697076,33.22,5143.29744246714,6.32865340282863,93.17,22.57421,88.365932,-9.27486474268189,-7.9754217476551,112.7,1.98984649033647
162,150,10.0217494784113,85.96,16.152,5.23012565324757,84.4769895512547,33.24,5139.46143379578,6.30608150314453,93.14,22.57422,88.365944,-9.46230305311434,-7.96129522659064,113.4,1.99986823981488
163,150,10.0314628339759,85.8733333333333,16.148,5.27367148436756,85.1592471295674,33.26,5134.77694832803,6.28321574063222,93.11,22.57423,88.365956,-9.64382773214986,-7.94398429358474,114.1,2.00989970264885
164,150,10.0429477401177,85.7866666666667,16.144,5.31546675192035,85.8128952430021,33.28,5129.25569483792,6.26006125999178,93.08,22.57424,88.365968,-9.81932533277293,-7.92349587277978,114.8,2.01994265038897
165,150,10.0561938611964,85.7,16.14,5.35524410882433,86.4336399164248,33.3,5122.91147358377,6.2366232708837,93.05,22.57425,88.36598,-9.98868617469585,-7.89983815927092,115.5,2.02999884425017
166,150,10.0711892765969,85.6133333333333,16.136,5.39274911573975,87.0173997315766,33.32,5115.7601418147,6.21290704675663,93.02,22.57426,88.365992,-10.1518044129054,-7.87302061582812,116.2,2.04007003352676
167,150,10.0879204914578,85.5266666666667,16.132,5.42774186861212,87.5603318244508,33.34,5107.8195741358,6.18891792366095,92.99,22.57427,88.366004,-10.3085781038123,-7.84305396911119,116.9,2.05015795401822
168,150,10.1063724488148,85.44,16.128,5.45999853323952,88.058856344087,33.36,5099.1096178309,6.16466129904816,92.96,22.57428,88.366016,-10.4589092689631,-7.80995020537928,117.6,2.06026432646704
169,150,10.1265285431518,85.3533333333333,16.124,5.48931277704759,88.5096792171153,33.38,5089.65204325469,6.14014263055647,92.93,22.57429,88.366028,-10.6027039562729,-7.7737225656965,118.3,2.07039085501019
170,150,10.1483706353445,85.2666666666667,16.12,5.5154970889139,88.909813073292,33.4,5079.47048941822,6.11536743478283,92.9,22.5743,88.36604,-10.739872298743,-7.73438554063569,119,2.08053922564553
171,150,10.1718790689842,85.18,16.116,5.53838397859922,89.2565961991051,33.42,5068.59040490362,6.0903412860418,92.87,22.57431,88.366052,-10.8703285706243,-7.69195486448239,119.7,2.09071110471452
172,150,10.1970326880673,85.0933333333333,16.112,5.5578270481135,89.5477093992048,33.44,5057.03898425594,6.06506981511124,92.84,22.57432,88.366064,-10.9939912409935,-7.64644750894133,120.4,2.10090813740258
173,150,10.2238088560345,85.0066666666667,16.108,5.57370192816336,89.7811906588554,33.46,5044.84510001093,6.03955870796552,92.81,22.57433,88.366076,-11.1107830247068,-7.59788167634797,121.1,2.11113194625862
174,150,10.252183476142,84.92,16.104,5.58590707369118,89.9554475147227,33.48,5032.03923052876,6.01381370449611,92.78,22.57434,88.366088,-11.2206309307014,-7.54627679238781,121.8,2.12138412973476
175,150,10.2821310131468,84.8333333333333,16.1,5.59436441341692,90.0692670560125,33.5,5018.65338381397,5.98784059722018,92.75,22.57435,88.3661,-11.3234663076116,-7.49165349832637,122.5,2.13166626074791
176,150,10.3136245162872,84.7466666666667,16.096,5.59901984922791,90.1218234931724,33.52,5004.72101751212,5.9616452299773,92.72,22.57436,88.366112,-11.4192248866742,-7.43403364275299,123.2,2.14197988526419
177,150,10.3466356435359,84.66,16.092,5.59984360222211,90.1126832469582,33.54,4990.27695528313,5.93523349661458,92.69,22.57437,88.366124,-11.5078468218945,-7.37344027284163,123.9,2.15232652090773
178,150,10.3811346871068,84.5733333333333,16.088,5.59683040319151,90.0418075265451,33.56,4975.35729976026,5.90861133966061,92.66,22.57438,88.366136,-11.5892767274477,-7.30989762513236,124.6,2.16270765559484
179,150,10.4170906001891,84.4866666666667,16.084,5.58999952632705,89.9095523814443,33.58,4959.9993423123,5.8817847489884,92.63,22.57439,88.366148,-11.6634637122934,-7.24343111583704,125.3,2.17312474619503
180,150,10.454471024888,84.4,16.08,5.57939466592957,89.7166662281474,33.6,4944.24146983461,5.85475976046766,92.6,22.5744,88.36616,-11.7303614119812,-7.17406733067318,126,2.18357921721991
181,150,10.4932423213445,84.3133333333333,16.076,5.56508365691541,89.4642848685721,33.62,4928.12306880184,5.82754245460681,92.57,22.57441,88.366172,-11.7899280176261,-7.10183401423,126.7,2.19407245954126
182,150,10.5333695980087,84.2266666666667,16.072,5.54715804090444,89.1539240334161,33.64,4911.68442682227,5.80013895518484,92.54,22.57442,88.366184,-11.8421263020388,-7.02676005887099,127.4,2.20460582913927
183,150,10.5748167430401,84.14,16.068,5.52573248066607,88.7874694993425,33.66,4894.96663193977,5.77255542787351,92.51,22.57443,88.366196,-11.8869236429906,-6.94887549317732,128.1,2.21518064588231
184,150,10.6175464568057,84.0533333333333,16.064,5.50094402666887,88.3671648444087,33.68,4878.01146993509,5.74479807885011,92.48,22.57444,88.366208,-11.9242920436016,-6.86821146993681,128.8,2.22579819233911
185,150,10.6615202854475,83.9666666666667,16.06,5.47295124042519,87.8955969212286,33.7,4860.86131988315,5.71687315340106,92.45,22.57445,88.36622,-11.9542081498378,-6.78480025368326,129.5,2.23645971262456
186,150,10.7066986554876,83.88,16.056,5.44193318023867,87.3756791419121,33.72,4843.55904822747,5.68878693451678,92.42,22.57446,88.366232,-11.9766532651066,-6.69867520779104,130.2,2.24716641128005
187,150,10.7530409094426,83.7933333333333,16.052,5.40808825584211,86.8106326827776,33.74,4826.14790163634,5.66054574147803,92.39,22.57447,88.366244,-11.9916133619416,-6.60987078113018,130.9,2.25791945218949
188,150,10.8005053424119,83.7066666666667,16.048,5.37163295925228,86.2039657300806,33.76,4808.67139890868,5.63215592843411,92.36,22.57448,88.366256,-11.9990790907692,-6.5184224942873,131.6,2.2687199575319
189,150,10.8490492396096,83.62,16.044,5.33280047995982,85.5594509004754,33.78,4791.17322219972,5.60362388297317,92.33,22.57449,88.366268,-11.999045785752,-6.42436692535784,132.3,2.27956900677151
190,150,10.8986289148047,83.5333333333333,16.04,5.29183921331228,84.8811009815289,33.8,4773.69710783837,5.57495602468509,92.3,22.5745,88.36628,-11.9915134677045,-6.32774169531533,133,2.29046763568632
191,150,10.9491997496362,83.4466666666667,16.036,5.24901117163157,84.1731431482838,33.82,4756.28673700914,5.54615880371703,92.27,22.57451,88.366292,-11.9764868440803,-6.22858545296346,133.7,2.30141683543595
192,150,11.0007162337662,83.36,16.032,5.20459030822924,83.4399918215312,33.84,4738.98562657196,5.51723869932222,92.24,22.57452,88.366304,-11.9539753060301,-6.1269378594771,134.4,2.31241755166972
193,150,11.0531320058361,83.2733333333333,16.028,5.15886076504021,82.6862203420644,33.86,4721.83702029268,5.48820221840215,92.21,22.57453,88.366316,-11.9239929225323,-6.02283957253836,135.1,2.32347068367556
194,150,11.1063998951891,83.1866666666667,16.024,5.11211505508399,81.9165316426659,33.88,4704.88378075617,5.45905589404253,92.18,22.57454,88.366328,-11.8865584316006,-5.91633223007407,135.8,2.33457708357075
195,150,11.1604719643203,83.1,16.02,5.06465219137967,81.1357281059023,33.9,4688.1682822322,5.42980628404337,92.15,22.57455,88.36634,-11.8416952285733,-5.80745843360112,136.5,2.34573755553507
196,150,11.2152995520171,83.0133333333333,16.016,5.01677577428292,80.3486808009152,33.92,4671.73230476182,5.40045996944354,92.12,22.57456,88.366352,-11.789431351492,-5.69626173118648,137.2,2.35695285508708
197,150,11.2708333171514,82.9266666666667,16.012,4.96879204947985,79.5602982962714,33.94,4655.61692972902,5.37102355304001,92.09,22.57457,88.366364,-11.7297994635786,-5.58278660002851,137.9,2.36822368840423
198,150,11.327023283083,82.84,16.008,4.9210079490597,78.7754952485477,33.96,4639.86243717864,5.34150365790229,92.06,22.57458,88.366376,-11.6628368328218,-5.46707842866669,138.6,2.37955071168732
199,150,11.3838188826352,82.7533333333333,16.004,4.87372912819688,77.9991609676629,33.98,4624.50820513728,5.31190692588225,92.03,22.57459,88.366388,-11.5885853086864,-5.34918349882681,139.3,2.39093453056995
200,150,11.4411690036021,82.6666666666667,16,4.82725801000096,77.2361281600154,34,4609.59261118872,5.28224001611973,92,22.5746,88.3664,-11.5070912959577,-5.2291489669089,140,2.40237569957355
201,150,11.4990220347458,82.58,15.996,4.78189185104081,76.4911420492489,34.02,4595.15293654994,5.25250960354428,91.97,22.57461,88.366412,-11.418405725741,-5.10702284512527,140.7,2.4138747216083
202,150,11.5573259122433,82.4933333333333,15.992,4.737920839917,75.7688300719526,34.04,4581.22527288749,5.2227223773733,91.94,22.57462,88.366424,-11.3225840236309,-4.98285398229633,141.4,2.42543204752054
203,150,11.6160281665401,82.4066666666667,15.988,4.69562624104499,75.0736723418274,34.06,4567.84443210715,5.19288503960701,91.91,22.57463,88.366436,-11.219686075072,-4.85669204431164,142.1,2.43704807568708
204,150,11.6750759695697,82.32,15.984,4.65527859552282,74.4099730708368,34.08,4555.04385934226,5.16300430352054,91.88,22.57464,88.366448,-11.1097761879328,-4.72858749426425,142.8,2.44872315165665
205,150,11.734416182295,82.2333333333333,15.98,4.61713599059123,73.7818331296479,34.1,4542.85554935832,5.13308689215344,91.85,22.57465,88.36646,-10.9929230523149,-4.59859157226615,143.5,2.46045756783895
206,150,11.7939954025298,82.1466666666667,15.976,4.58144240875613,73.193123922288,34.12,4531.30996658275,5.10313953679707,91.82,22.57466,88.366472,-10.8691996976245,-4.46675627495288,144.2,2.47225156324148
207,150,11.8537600129975,82.06,15.972,4.54842616713317,72.6474627414509,34.14,4520.43596895965,5.07316897548003,91.79,22.57467,88.366484,-10.7386834469307,-4.33313433468559,144.9,2.48410532325448
208,150,11.9136562295825,81.9733333333333,15.968,4.51829845699732,72.1481897613332,34.16,4510.26073582002,5.04318195145219,91.76,22.57468,88.366496,-10.6014558686418,-4.19777919845877,145.6,2.49601897948406
209,150,11.973630149733,81.8866666666667,15.964,4.49125199287948,71.698346814328,34.18,4500.80969994755,5.01318521166745,91.73,22.57469,88.366508,-10.4576027255274,-4.06074500652222,146.3,2.50799260963379
210,150,12.0336278009687,81.8,15.96,4.4674597798511,71.3006580864235,34.2,4492.10648400992,4.9831855052657,91.7,22.5747,88.36652,-10.3072139211191,-3.9220865707256,147,2.52002623743476
211,150,12.0935951894534,81.7133333333333,15.956,4.44707400688212,70.9575128538112,34.22,4484.17284151441,4.95318958205434,91.67,22.57471,88.366532,-10.1503834435244,-3.78185935259448,147.7,2.53211983262421
212,150,12.153478348585,81.6266666666667,15.952,4.43022507335096,70.6709503700946,34.24,4477.02860243552,4.92320419098953,91.64,22.57472,88.366544,-9.98720930668681,-3.64011944114644,148.4,2.5442733109728
213,150,12.2132233875624,81.54,15.948,4.41702075493346,70.4426469996788,34.26,4470.69162365028,4.89323607865777,91.61,22.57473,88.366556,-9.8177934891302,-3.49692353045622,149.1,2.55648653436036
214,150,12.2727765398832,81.4533333333333,15.944,4.40754551420635,70.2739056785061,34.28,4465.17774430543,4.8632919877579,91.58,22.57474,88.366568,-9.64224187022586,-3.35232889697884,149.8,2.56875931090024
215,150,12.3320842117299,81.3666666666667,15.94,4.40185996037504,70.1656477683782,34.3,4460.50074622776,4.83337865558406,91.55,22.57475,88.36658,-9.46066416402116,-3.2063933766398,150.5,2.58109139511197
216,150,12.3910930302011,81.28,15.936,4.4000004615815,70.1184073557628,34.32,4456.67231947673,4.80350281250978,91.52,22.57476,88.366592,-9.27317385067185,-3.05917534170144,151.2,2.59348248814217
217,150,12.4497498913431,81.1933333333333,15.932,4.40197891227227,70.1323280303218,34.34,4453.7020331254,4.77367118047372,91.49,22.57477,88.366604,-9.0798881055207,-2.91073367741487,151.9,2.60593223803352
218,150,12.50800200794,81.1066666666667,15.928,4.4077826571146,70.2071621625213,34.36,4451.59731134277,4.74389047146724,91.46,22.57478,88.366616,-8.88092772586673,-2.76112775846658,152.6,2.61844024004146
219,150,12.565796957019,81.02,15.924,4.41737457194739,70.3422726836902,34.38,4450.36341483716,4.71416738602422,91.43,22.57479,88.366628,-8.67641705547076,-2.61041742522947,153.3,2.63100603699848
220,150,12.6230827270268,80.9333333333333,15.92,4.43069330124913,70.5366373558861,34.4,4450.00342770725,4.6845086117135,91.4,22.5748,88.36664,-8.4664839068447,-2.45866295982735,154,2.6436291197255
221,150,12.679807764637,80.8466666666667,15.916,4.44765365060385,70.7888555030108,34.42,4450.51824973338,4.65492082163418,91.37,22.57481,88.366652,-8.2512594813728,-2.30592506202305,154.7,2.65630892749014
222,150,12.7359210211448,80.76,15.912,4.46814713165466,71.0971571588889,34.44,4451.9065941286,4.62541067291419,91.34,22.57482,88.366664,-8.03087828731514,-2.15226482493919,155.4,2.66904484851128
223,150,12.7913719984067,80.6733333333333,15.908,4.49204265605899,71.4594145725865,34.46,4454.16499075496,4.59598480521252,91.31,22.57483,88.366676,-7.80547805574428,-1.99774371062184,156.1,2.68183622050969
224,150,12.846110794286,80.5866666666667,15.904,4.51918737400666,71.8731559962019,34.48,4457.28779479704,4.56664983922524,91.28,22.57484,88.366688,-7.57519965446785,-1.84242352545647,156.8,2.69468233130398
225,150,12.9000881475612,80.5,15.9,4.54940765193699,72.3355816657982,34.5,4461.26720087106,4.53741237519596,91.25,22.57485,88.3667,-7.34018699999078,-1.68636639544624,157.5,2.70758241945154
226,150,12.9532554822578,80.4133333333333,15.896,4.58251018320113,72.8435818721651,34.52,4466.09326253427,4.50827899143073,91.22,22.57486,88.366712,-7.10058696757211,-1.52963474136241,158.2,2.7205356749338
227,150,13.0055649513631,80.3266666666667,15.892,4.61828322456484,73.3937570047844,34.54,4471.75391714588,4.47925624281799,91.19,22.57487,88.366724,-6.85654929943279,-1.37229125377689,158.9,2.73354123988516
228,150,13.0569694798859,80.24,15.888,4.65649795064266,73.9824394398106,34.56,4478.23501601736,4.45035065935375,91.16,22.57488,88.366736,-6.60822651117165,-1.21439886798684,159.6,2.74659820936505
229,150,13.10742280722,80.1533333333333,15.884,4.69690991759948,74.6057171311502,34.58,4485.52035977684,4.42156874467234,91.13,22.57489,88.366748,-6.35577379644808,-1.05602073884136,160.3,2.75970563217227
230,150,13.1568795287764,80.0666666666667,15.88,4.73926062675686,75.259458752899,34.6,4493.59173885905,4.39291697458314,91.1,22.5749,88.36676,-6.0993489299911,-0.897220215480432,161,2.77286251170104
231,150,13.2052951368439,79.98,15.876,4.78327917810245,75.9393402315545,34.62,4502.42897901977,4.36440179561355,91.07,22.57491,88.366772,-5.83911216899525,-0.738060815996093,161.7,2.78606780683789
232,150,13.2526260606433,79.8933333333333,15.872,4.82868400312557,76.640872497609,34.64,4512.00999176095,4.33602962355853,91.04,22.57492,88.366784,-5.57522615296508,-0.578606202026036,162.4,2.79932043289853
233,150,13.2988297055378,79.8066666666667,15.868,4.87518466589481,77.3594302784189,34.66,4522.31082954043,4.30780684203711,91.01,22.57493,88.366796,-5.30785580207076,-0.418920153289807,163.1,2.81261926260407
234,150,13.3438644913657,79.72,15.864,4.92248372085687,78.0902817476733,34.68,4533.30574562834,4.27973980105606,90.98,22.57494,88.366808,-5.03716821407831,-0.259066542077798,163.8,2.82596312709543
235,150,13.3876898898595,79.6333333333333,15.86,4.97027861547298,78.8286188414015,34.7,4544.96725846049,4.2518348155812,90.95,22.57495,88.36682,-4.76333255991896,-0.0991093077031245,164.5,2.83935081698529
236,150,13.4302664611187,79.5466666666667,15.856,5.01826362552271,79.5695880462881,34.72,4557.26622032801,4.22409816411654,90.92,22.57496,88.366832,-4.48651997796283,0.0608875690731832,165.2,2.85278108344641
237,150,13.471555889103,79.46,15.852,5.06613181069564,80.3083214631473,34.74,4570.1718902314,4.19653608729164,90.89,22.57497,88.366844,-4.206903467063,0.220860091633692,165.9,2.86625263933551
238,150,13.5115210161141,79.3733333333333,15.848,5.11357697796188,81.0399679467399,34.76,4583.65201071704,4.16915478645751,90.86,22.57498,88.366856,-3.92465777843689,0.380744273102303,166.6,2.87976416035163
239,150,13.5501258762353,79.2866666666667,15.844,5.16029564016256,81.7597241227356,34.78,4597.67288850403,4.14196042229132,90.83,22.57499,88.366868,-3.63995930645236,0.540476161938202,167.3,2.89331428622786
240,150,13.5873357276983,79.2,15.84,5.20598895729194,82.4628650835043,34.8,4612.19947869985,4.1149591134103,90.8,22.575,88.36688,-3.35298597838711,0.699991867515571,168,2.90690162195556
241,150,13.6231170841483,79.1133333333333,15.836,5.25036464805364,83.1447745665775,34.82,4627.19547239429,4.08815693499501,90.77,22.57501,88.366892,-3.06391714322976,0.859227585679042,168.7,2.92052473903971
242,150,13.6574377447797,79.0266666666667,15.832,5.29313885946351,83.8009744230263,34.84,4642.62338741289,4.06155991742255,90.74,22.57502,88.366904,-2.7729334595927,1.01811962426445,169.4,2.93418217678449
243,150,13.6902668233144,78.94,15.828,5.33403798254002,84.4271531876435,34.86,4658.4446620028,4.03517404490964,90.71,22.57503,88.366916,-2.48021678280628,1.1766044285749,170.1,2.9478724436078
244,150,13.7215747757978,78.8533333333333,15.824,5.37280040246805,85.0191935686543,34.88,4674.61975121711,4.00900525416631,90.68,22.57504,88.366928,-2.18595005126514,1.33461860680177,170.8,2.9615940183836
245,150,13.7513334271858,78.7666666666667,15.82,5.40917817204088,85.5731986816867,34.9,4691.10822575661,3.98305943306006,90.65,22.57505,88.36694,-1.89031717209772,1.49209895538061,171.5,2.97534535181079
246,150,13.7795159967007,78.68,15.816,5.44293859767623,86.0855168608472,34.92,4707.86887302197,3.95734241929119,90.62,22.57506,88.366952,-1.5935029062302,1.64898248427167,172.2,2.98912486780749
247,150,13.8060971219324,78.5933333333333,15.812,5.47386572786103,86.5527648889385,34.94,4724.85980012382,3.93185999907929,90.59,22.57507,88.366964,-1.29569275291705,1.80520644215517,172.9,3.00293096492942
248,150,13.8310528816622,78.5066666666667,15.808,5.50176173450418,86.971849499042,34.96,4742.03853859309,3.90661790586143,90.56,22.57508,88.366976,-0.997072833809957,1.96070834153089,173.6,3.01676201781108
249,150,13.8543608173909,78.42,15.804,5.52644817836123,87.3399870108208,34.98,4759.36215053014,3.88162181900207,90.53,22.57509,88.366988,-0.697829776637843,2.11542598371245,174.3,3.03061637862848
250,150,13.8759999535495,78.3333333333333,15.8,5.54776715043658,87.6547209768979,35,4776.78733592708,3.85687736251531,90.5,22.5751,88.367,-0.398150598570682,2.26929748370581,175,3.04449237858202
251,150,13.8959508163761,78.2466666666667,15.796,5.56558228206218,87.9139377274542,35.02,4794.27054089528,3.83239010379948,90.47,22.57511,88.367012,-0.0982225893397643,2.4222612949626,175.7,3.0583883293984
252,150,13.9141954514408,78.16,15.792,5.57977961719164,88.1158797146904,35.04,4811.7680665274,3.80816555238447,90.44,22.57512,88.367024,0.201766805812207,2.57425623399777,176.4,3.07230252484984
253,150,13.9307174398036,78.0733333333333,15.788,5.59026834133004,88.2591565729186,35.06,4829.23617812189,3.78420915869217,90.41,22.57513,88.367036,0.501630103278328,2.72522150486232,177.1,3.08623324228965
254,150,13.94550191279,77.9866666666667,15.784,5.59698136243675,88.3427538247017,35.08,4846.63121449698,3.76052631281007,90.38,22.57514,88.367048,0.801179898258676,2.87509672346072,177.8,3.10017874420244
255,150,13.9585355653724,77.9,15.78,5.5998757400856,88.3660391785508,35.1,4863.9096971209,3.73712234327861,90.35,22.57515,88.36706,1.10022898188213,3.02382194170385,178.5,3.11413727976781
256,150,13.9698066681431,77.8133333333333,15.776,5.59893296013699,88.3287663791212,35.12,4881.02843878554,3.71400251589218,90.32,22.57516,88.367072,1.39859045820592,3.17133767148738,179.2,3.12810708643595
257,150,13.9793050778705,77.7266666666667,15.772,5.59415905316527,88.2310765865226,35.14,4897.94465155201,3.69117203251442,90.29,22.57517,88.367084,1.69607786101942,3.31758490848625,179.9,3.14208639151382
258,150,13.9870222466268,77.64,15.768,5.58558455588358,88.0734972771723,35.16,4914.61605369819,3.66863602990776,90.26,22.57518,88.367096,1.99250527037949,3.46250515575562,180.6,3.15607341376045
259,150,13.9929512294812,77.5533333333333,15.764,5.57326431581316,87.8569386744787,35.18,4931.00097540102,3.64639957857773,90.23,22.57519,88.367108,2.28768742880442,3.60604044712879,181.3,3.17006636498993
260,150,13.9970866907492,77.4666666666667,15.76,5.55727714044634,87.5826877334344,35.2,4947.05846288932,3.62446768163205,90.2,22.5752,88.36712,2.58143985705379,3.74813337040302,182,3.18406345168068
261,150,13.9994249087949,77.38,15.756,5.53772529314756,87.252399718833,35.22,4962.74838080698,3.60284527365503,90.17,22.57521,88.367132,2.873578969422,3.88872709030352,182.7,3.19806287658947
262,150,13.9999637793797,77.2933333333333,15.752,5.51473383901678,86.8680874321924,35.24,4978.03151253033,3.58153721959723,90.14,22.57522,88.367144,3.16392218847335,4.02776537121691,183.4,3.21206284036885
263,150,13.9987028175566,77.2066666666667,15.748,5.4884498448997,86.4321081574804,35.26,4992.86965818938,3.56054831368092,90.11,22.57523,88.367156,3.45228805914701,4.16519259968464,184.1,3.22606154318641
264,150,13.9956431581061,77.12,15.744,5.45904143866175,85.9471484102906,35.28,5007.22573014753,3.5398832783214,90.08,22.57524,88.367168,3.73849636216054,4.30095380664765,184.8,3.24005718634452
265,150,13.9907875545152,77.0333333333333,15.74,5.42669673374359,85.4162065891241,35.3,5021.06384570138,3.51954676306443,90.05,22.57525,88.36718,4.02236822664103,4.43499468943329,185.5,3.25404797389903
266,150,13.9841403764994,76.9466666666667,15.736,5.39162262587698,84.8425736408001,35.32,5034.34941676881,3.49954334354016,90.02,22.57526,88.367192,4.3037262419136,4.56726163347563,186.2,3.26803211427553
267,150,13.9757076060702,76.86,15.732,5.35404346965818,84.2298118646624,35.34,5047.04923634113,3.47987752043359,89.99,22.57527,88.367204,4.58239456837732,4.69770173376059,186.9,3.2820078218816
268,150,13.9654968321517,76.7733333333333,15.728,5.31419964344416,83.5817319920898,35.36,5059.13156148336,3.46055371847195,89.96,22.57528,88.367216,4.85819904739918,4.82626281598723,187.6,3.29597331871375
269,150,13.9535172437514,76.6866666666667,15.724,5.27234601175145,82.9023686887799,35.38,5070.56619267498,3.44157628542917,89.93,22.57529,88.367228,5.13096731015763,4.95289345743679,188.3,3.3099268359575
270,150,13.9397796216902,76.6,15.72,5.22875029499296,82.1959546372894,35.4,5081.32454929307,3.42294949114761,89.9,22.5753,88.36724,5.40052888536741,5.07754300754108,189,3.32386661557919
271,150,13.9242963289006,76.5133333333333,15.716,5.18369135698098,81.466893366313,35.42,5091.37974104891,3.40467752657741,89.87,22.57531,88.367252,5.66671530581865,5.20016160814201,189.7,3.33779091190809
272,150,13.9070812993011,76.4266666666667,15.712,5.13745742115039,80.719731001115,35.44,5100.70663519977,3.38676450283352,89.84,22.57532,88.367264,5.92936021366331,5.32070021343426,190.4,3.3516979932074
273,150,13.8881500252564,76.34,15.708,5.09034422691237,79.9591271163394,35.46,5109.28191936762,3.3692144502707,89.81,22.57533,88.367276,6.18829946438342,5.43911060958286,191.1,3.36558614323265
274,150,13.8675195436353,76.2533333333333,15.704,5.04265313793128,79.1898248780728,35.48,5117.08415980796,3.35203131757675,89.78,22.57534,88.367288,6.44337122937614,5.55534543400813,191.8,3.37945366277629
275,150,13.8452084204787,76.1666666666667,15.7,4.99468921442576,78.4166206664844,35.5,5124.09385498302,3.33521897088403,89.75,22.57535,88.3673,6.69441609709128,5.66935819433008,192.5,3.39329887119677
276,150,13.8212367342915,76.08,15.696,4.94675926182429,77.6443333735941,35.52,5130.29348430544,3.31878119289961,89.72,22.57536,88.367312,6.9412771726584,5.78110328696474,193.2,3.40712010793106
277,150,13.7956260579732,75.9933333333333,15.692,4.89916986825753,76.8777735726972,35.54,5135.66755193061,3.3027216820542,89.69,22.57537,88.367324,7.18380017594094,5.89053601536495,193.9,3.42091573398903
278,150,13.7683994394038,75.9066666666667,15.688,4.85222544344049,76.1217127566944,35.56,5140.20262548824,3.28704405167,89.66,22.57538,88.367336,7.42183353795629,5.99761260789846,194.6,3.43468413342843
279,150,13.7395813807024,75.82,15.684,4.8062262714892,75.3808528420366,35.58,5143.88736965625,3.27175182914769,89.63,22.57539,88.367348,7.65522849560154,6.10229023535591,195.3,3.44842371480914
280,150,13.7091978161766,75.7333333333333,15.68,4.76146659012714,74.6597961331935,35.6,5146.7125744932,3.25684845517282,89.6,22.5754,88.36736,7.88383918462547,6.204527028082,196,3.46213291262531
281,150,13.6772760889836,75.6466666666667,15.676,4.7182327085679,73.9630159395104,35.62,5148.67117845834,3.24233728294168,89.57,22.57541,88.367372,8.10752273078906,6.30428209272278,196.7,3.4758101887143
282,150,13.6438449265232,75.56,15.672,4.67680117611329,73.2948280320475,35.64,5149.75828606177,3.2282215774068,89.54,22.57542,88.367384,8.32613933915717,6.40151552858245,197.4,3.48945403364082
283,150,13.6089344145852,75.4733333333333,15.668,4.63743701318156,72.6593631225287,35.66,5149.97118010064,3.21450451454236,89.51,22.57543,88.367396,8.53955238146584,6.49618844358308,198.1,3.50306296805541
284,150,13.5725759702739,75.3866666666667,15.664,4.60039201608112,72.0605405398946,35.68,5149.30932845073,3.20118918062964,89.48,22.57544,88.367408,8.74762848151052,6.58826296982098,198.8,3.51663554402568
285,150,13.534802313735,75.3,15.66,4.56590314637345,71.5020432722083,35.7,5147.77438539647,3.18827857156261,89.45,22.57545,88.36742,8.95023759850185,6.67770227871328,199.5,3.53017034633941
286,150,13.4956474387098,75.2133333333333,15.656,4.5341910151278,70.9872945328409,35.72,5145.37018749611,3.17577559217384,89.42,22.57546,88.367432,9.14725310833694,6.76447059572893,200.2,3.54366599377812
287,150,13.4551465819429,75.1266666666667,15.652,4.50545847176316,70.5194360000369,35.74,5142.10274399234,3.16368305558094,89.39,22.57547,88.367444,9.33855188273525,6.84853321469804,200.9,3.55712114036007
288,150,13.4133361914718,75.04,15.648,4.47988930650421,70.1013078681779,35.76,5137.98022179225,3.15200368255362,89.36,22.57548,88.367456,9.52401436618984,6.92985651169383,201.6,3.57053447655154
289,150,13.3702538938256,74.9533333333333,15.644,4.45764707475116,69.7354308374072,35.78,5133.01292505437,3.14074010090156,89.33,22.57549,88.367468,9.70352465068561,7.00840795848179,202.3,3.58390473044537
290,150,13.3259384601644,74.8666666666667,15.64,4.43887405088328,69.4239901558145,35.8,5127.21326943364,3.1298948448831,89.3,22.5755,88.36748,9.87697054813807,7.08415613553055,203,3.59723066890553
291,150,13.2804297713871,74.78,15.636,4.42369031818838,69.1688218151935,35.82,5120.5957510487,3.1194703546351,89.27,22.57551,88.367492,10.0442436605072,7.15707074457926,203.7,3.61051109867692
292,150,13.2337687822421,74.6933333333333,15.632,4.41219300073964,68.9714009875621,35.84,5113.17691024918,3.10946897562387,89.24,22.57552,88.367504,10.2052394475428,7.22712262075647,204.4,3.62374486745916
293,150,13.1859974844699,74.6066666666667,15.628,4.40445564213292,68.8328327752533,35.86,5104.97529027341,3.09989295811752,89.21,22.57553,88.367516,10.3598572921185,7.29428374424573,205.1,3.63693086494363
294,150,13.1371588690141,74.52,15.624,4.40052773505876,68.753845332558,35.88,5096.01139090003,3.09074445667957,89.18,22.57554,88.367528,10.5080005631146,7.35852725149311,205.8,3.65006802381264
295,150,13.0872968873322,74.4333333333333,15.62,4.40043440471802,68.7347854016955,35.9,5086.30761720914,3.08202552968425,89.15,22.57555,88.36754,10.6495766758089,7.41982744595229,206.5,3.66315532069997
296,150,13.036456411842,74.3466666666667,15.616,4.4041762481064,68.7756162904296,35.92,5075.88822358136,3.07373813885337,89.12,22.57556,88.367552,10.7844971497395,7.47815980836279,207.2,3.67619177711182
297,150,12.9846831955398,74.26,15.612,4.41172933019565,68.8759183030144,35.94,5064.77925307443,3.06588414881488,89.09,22.57557,88.367564,10.9126776640021,7.53350100655742,207.9,3.68917646030736
298,150,12.9320238308257,74.1733333333333,15.608,4.42304533703607,69.0348916204589,35.96,5053.00847232919,3.05846532668342,89.06,22.57558,88.367576,11.0340381099476,7.58582890479477,208.6,3.70210848413818
